[
 {
   "stop_id": 2155384,
   "stop_name": "Tallawong Station",
   "stop_lat": -33.69163,
   "stop_lon": 150.906022,
   "location_type": 1,
   "parent_station": null,
   "wheelchair_boarding": 1,
   "platform_code": null,
   "stop_timezone": "Australia/Sydney"
 },
 {
   "stop_id": 2155269,
   "stop_name": "Tallawong Station Platform 2",
   "stop_lat": -33.691605,
   "stop_lon": 150.905863,
   "location_type": 0,
   "parent_station": 2155384,
   "wheelchair_boarding": 1,
   "platform_code": 2,
   "stop_timezone": ""
 },
 {
   "stop_id": 2155270,
   "stop_name": "Tallawong Station Platform 3",
   "stop_lat": -33.691771,
   "stop_lon": 150.905919,
   "location_type": 0,
   "parent_station": 2155384,
   "wheelchair_boarding": 1,
   "platform_code": 3,
   "stop_timezone": ""
 },
 {
   "stop_id": 2155383,
   "stop_name": "Rouse Hill Station",
   "stop_lat": -33.691986,
   "stop_lon": 150.924306,
   "location_type": 1,
   "parent_station": null,
   "wheelchair_boarding": 1,
   "platform_code": null,
   "stop_timezone": "Australia/Sydney"
 },
 {
   "stop_id": 2155267,
   "stop_name": "Rouse Hill Station Platform 1",
   "stop_lat": -33.691955,
   "stop_lon": 150.924359,
   "location_type": 0,
   "parent_station": 2155383,
   "wheelchair_boarding": 1,
   "platform_code": 1,
   "stop_timezone": ""
 },
 {
   "stop_id": 2155268,
   "stop_name": "Rouse Hill Station Platform 2",
   "stop_lat": -33.692018,
   "stop_lon": 150.924252,
   "location_type": 0,
   "parent_station": 2155383,
   "wheelchair_boarding": 1,
   "platform_code": 2,
   "stop_timezone": ""
 },
 {
   "stop_id": 2155382,
   "stop_name": "Kellyville Station",
   "stop_lat": -33.713514,
   "stop_lon": 150.935304,
   "location_type": 1,
   "parent_station": null,
   "wheelchair_boarding": 1,
   "platform_code": null,
   "stop_timezone": "Australia/Sydney"
 },
 {
   "stop_id": 2155265,
   "stop_name": "Kellyville Station Platform 1",
   "stop_lat": -33.713493,
   "stop_lon": 150.935365,
   "location_type": 0,
   "parent_station": 2155382,
   "wheelchair_boarding": 1,
   "platform_code": 1,
   "stop_timezone": ""
 },
 {
   "stop_id": 2155266,
   "stop_name": "Kellyville Station Platform 2",
   "stop_lat": -33.713535,
   "stop_lon": 150.935244,
   "location_type": 0,
   "parent_station": 2155382,
   "wheelchair_boarding": 1,
   "platform_code": 2,
   "stop_timezone": ""
 },
 {
   "stop_id": 2153478,
   "stop_name": "Bella Vista Station",
   "stop_lat": -33.730592,
   "stop_lon": 150.944024,
   "location_type": 1,
   "parent_station": null,
   "wheelchair_boarding": 1,
   "platform_code": null,
   "stop_timezone": "Australia/Sydney"
 },
 {
   "stop_id": 2153402,
   "stop_name": "Bella Vista Station Platform 1",
   "stop_lat": -33.730699,
   "stop_lon": 150.944174,
   "location_type": 0,
   "parent_station": 2153478,
   "wheelchair_boarding": 1,
   "platform_code": 1,
   "stop_timezone": ""
 },
 {
   "stop_id": 2153403,
   "stop_name": "Bella Vista Station Platform 2",
   "stop_lat": -33.73074,
   "stop_lon": 150.943991,
   "location_type": 0,
   "parent_station": 2153478,
   "wheelchair_boarding": 1,
   "platform_code": 2,
   "stop_timezone": ""
 },
 {
   "stop_id": 2153477,
   "stop_name": "Norwest Station",
   "stop_lat": -33.734348,
   "stop_lon": 150.963846,
   "location_type": 1,
   "parent_station": null,
   "wheelchair_boarding": 1,
   "platform_code": null,
   "stop_timezone": "Australia/Sydney"
 },
 {
   "stop_id": 2153404,
   "stop_name": "Norwest Station Platform 1",
   "stop_lat": -33.734231,
   "stop_lon": 150.963881,
   "location_type": 0,
   "parent_station": 2153477,
   "wheelchair_boarding": 1,
   "platform_code": 1,
   "stop_timezone": ""
 },
 {
   "stop_id": 2153405,
   "stop_name": "Norwest Station Platform 2",
   "stop_lat": -33.73433,
   "stop_lon": 150.964009,
   "location_type": 0,
   "parent_station": 2153477,
   "wheelchair_boarding": 1,
   "platform_code": 2,
   "stop_timezone": ""
 },
 {
   "stop_id": 2154392,
   "stop_name": "Hills Showground Station",
   "stop_lat": -33.72782,
   "stop_lon": 150.987345,
   "location_type": 1,
   "parent_station": null,
   "wheelchair_boarding": 1,
   "platform_code": null,
   "stop_timezone": "Australia/Sydney"
 },
 {
   "stop_id": 2154264,
   "stop_name": "Hills Showground Station Platform 1",
   "stop_lat": -33.727757,
   "stop_lon": 150.987455,
   "location_type": 0,
   "parent_station": 2154392,
   "wheelchair_boarding": 1,
   "platform_code": 1,
   "stop_timezone": ""
 },
 {
   "stop_id": 2154265,
   "stop_name": "Hills Showground Station Platform 2",
   "stop_lat": -33.727857,
   "stop_lon": 150.987477,
   "location_type": 0,
   "parent_station": 2154392,
   "wheelchair_boarding": 1,
   "platform_code": 2,
   "stop_timezone": ""
 },
 {
   "stop_id": 2154391,
   "stop_name": "Castle Hill Station",
   "stop_lat": -33.731485,
   "stop_lon": 151.007809,
   "location_type": 1,
   "parent_station": null,
   "wheelchair_boarding": 1,
   "platform_code": null,
   "stop_timezone": "Australia/Sydney"
 },
 {
   "stop_id": 2154262,
   "stop_name": "Castle Hill Station Platform 1",
   "stop_lat": -33.731481,
   "stop_lon": 151.007701,
   "location_type": 0,
   "parent_station": 2154391,
   "wheelchair_boarding": 1,
   "platform_code": 1,
   "stop_timezone": ""
 },
 {
   "stop_id": 2154263,
   "stop_name": "Castle Hill Station Platform 2",
   "stop_lat": -33.73155,
   "stop_lon": 151.007734,
   "location_type": 0,
   "parent_station": 2154391,
   "wheelchair_boarding": 1,
   "platform_code": 2,
   "stop_timezone": ""
 },
 {
   "stop_id": 2126158,
   "stop_name": "Cherrybrook Station",
   "stop_lat": -33.736703,
   "stop_lon": 151.031977,
   "location_type": 1,
   "parent_station": null,
   "wheelchair_boarding": 1,
   "platform_code": null,
   "stop_timezone": "Australia/Sydney"
 },
 {
   "stop_id": 2126159,
   "stop_name": "Cherrybrook Station Platform 1",
   "stop_lat": -33.736713,
   "stop_lon": 151.032083,
   "location_type": 0,
   "parent_station": 2126158,
   "wheelchair_boarding": 1,
   "platform_code": 1,
   "stop_timezone": ""
 },
 {
   "stop_id": 2126160,
   "stop_name": "Cherrybrook Station Platform 2",
   "stop_lat": -33.736782,
   "stop_lon": 151.032012,
   "location_type": 0,
   "parent_station": 2126158,
   "wheelchair_boarding": 1,
   "platform_code": 2,
   "stop_timezone": ""
 },
 {
   "stop_id": 212110,
   "stop_name": "Epping Station",
   "stop_lat": -33.772841,
   "stop_lon": 151.082177,
   "location_type": 1,
   "parent_station": null,
   "wheelchair_boarding": 1,
   "platform_code": null,
   "stop_timezone": "Australia/Sydney"
 },
 {
   "stop_id": 2121225,
   "stop_name": "Epping Station Platform 5",
   "stop_lat": -33.772913,
   "stop_lon": 151.082287,
   "location_type": 0,
   "parent_station": 212110,
   "wheelchair_boarding": 1,
   "platform_code": 5,
   "stop_timezone": ""
 },
 {
   "stop_id": 2121226,
   "stop_name": "Epping Station Platform 6",
   "stop_lat": -33.772975,
   "stop_lon": 151.082061,
   "location_type": 0,
   "parent_station": 212110,
   "wheelchair_boarding": 1,
   "platform_code": 6,
   "stop_timezone": ""
 },
 {
   "stop_id": 211310,
   "stop_name": "Macquarie University Station",
   "stop_lat": -33.777413,
   "stop_lon": 151.118187,
   "location_type": 1,
   "parent_station": null,
   "wheelchair_boarding": 1,
   "platform_code": null,
   "stop_timezone": "Australia/Sydney"
 },
 {
   "stop_id": 2113351,
   "stop_name": "Macquarie University Station Platform 1",
   "stop_lat": -33.777469,
   "stop_lon": 151.118175,
   "location_type": 0,
   "parent_station": 211310,
   "wheelchair_boarding": 1,
   "platform_code": 1,
   "stop_timezone": ""
 },
 {
   "stop_id": 2113352,
   "stop_name": "Macquarie University Station Platform 2",
   "stop_lat": -33.777509,
   "stop_lon": 151.118132,
   "location_type": 0,
   "parent_station": 211310,
   "wheelchair_boarding": 1,
   "platform_code": 2,
   "stop_timezone": ""
 },
 {
   "stop_id": 211340,
   "stop_name": "Macquarie Park Station",
   "stop_lat": -33.785013,
   "stop_lon": 151.128641,
   "location_type": 1,
   "parent_station": null,
   "wheelchair_boarding": 1,
   "platform_code": null,
   "stop_timezone": "Australia/Sydney"
 },
 {
   "stop_id": 2113341,
   "stop_name": "Macquarie Park Station Platform 1",
   "stop_lat": -33.785024,
   "stop_lon": 151.12842,
   "location_type": 0,
   "parent_station": 211340,
   "wheelchair_boarding": 1,
   "platform_code": 1,
   "stop_timezone": ""
 },
 {
   "stop_id": 2113342,
   "stop_name": "Macquarie Park Station Platform 2",
   "stop_lat": -33.785076,
   "stop_lon": 151.128371,
   "location_type": 0,
   "parent_station": 211340,
   "wheelchair_boarding": 1,
   "platform_code": 2,
   "stop_timezone": ""
 },
 {
   "stop_id": 211320,
   "stop_name": "North Ryde Station",
   "stop_lat": -33.794422,
   "stop_lon": 151.13794,
   "location_type": 1,
   "parent_station": null,
   "wheelchair_boarding": 1,
   "platform_code": null,
   "stop_timezone": "Australia/Sydney"
 },
 {
   "stop_id": 2113361,
   "stop_name": "North Ryde Station Platform 1",
   "stop_lat": -33.794221,
   "stop_lon": 151.138042,
   "location_type": 0,
   "parent_station": 211320,
   "wheelchair_boarding": 1,
   "platform_code": 1,
   "stop_timezone": ""
 },
 {
   "stop_id": 2113362,
   "stop_name": "North Ryde Station Platform 2",
   "stop_lat": -33.794287,
   "stop_lon": 151.138042,
   "location_type": 0,
   "parent_station": 211320,
   "wheelchair_boarding": 1,
   "platform_code": 2,
   "stop_timezone": ""
 },
 {
   "stop_id": 206710,
   "stop_name": "Chatswood Station",
   "stop_lat": -33.797134,
   "stop_lon": 151.180821,
   "location_type": 1,
   "parent_station": null,
   "wheelchair_boarding": 1,
   "platform_code": null,
   "stop_timezone": "Australia/Sydney"
 },
 {
   "stop_id": 2067142,
   "stop_name": "Chatswood Station Platform 2",
   "stop_lat": -33.797475,
   "stop_lon": 151.180981,
   "location_type": 0,
   "parent_station": 206710,
   "wheelchair_boarding": 1,
   "platform_code": 2,
   "stop_timezone": ""
 },
 {
   "stop_id": 2067143,
   "stop_name": "Chatswood Station Platform 3",
   "stop_lat": -33.797483,
   "stop_lon": 151.180874,
   "location_type": 0,
   "parent_station": 206710,
   "wheelchair_boarding": 1,
   "platform_code": 3,
   "stop_timezone": ""
 }
]